{"version": 0.6, "generator": "Overpass API 0.7.62 7c32a7d5", "osm3s": {"timestamp_osm_base": "2024-03-22T12:02:14Z", "copyright": "The data included in this document is from www.openstreetmap.org. The data is made available under ODbL."}, "elements": [{"type": "node", "id": 1508412431, "lat": 5.6478457, "lon": -0.1789641, "tags": {"amenity": "atm", "name": "SG-SSB", "operator": "SG-SSB"}}, {"type": "node", "id": 4451500937, "lat": 5.6493371, "lon": -0.1870528, "tags": {"amenity": "atm", "name": "Republic Bank", "old_name": "hfc bank", "operator": "Republic Bank (Ghana) Limited"}}, {"type": "node", "id": 4492831390, "lat": 5.6507859, "lon": -0.1890544, "tags": {"amenity": "atm", "opening_hours": "24/7", "operator": "CAL BANK"}}, {"type": "node", "id": 4518650090, "lat": 5.6469774, "lon": -0.1865162, "tags": {"amenity": "atm", "opening_hours": "24/7", "operator": "All Banks"}}, {"type": "node", "id": 4972575279, "lat": 5.6519994, "lon": -0.188485, "tags": {"amenity": "atm", "brand": "Ecobank", "brand:wikidata": "Q930225", "brand:wikipedia": "en:Ecobank", "name": "Ecobank", "operator": "Ecobank", "operator:wikidata": "Q930225", "operator:wikipedia": "en:Ecobank"}}, {"type": "node", "id": 5744469515, "lat": 5.6516214, "lon": -0.1891882, "tags": {"amenity": "atm", "name": "Zenith"}}, {"type": "node", "id": 5778972255, "lat": 5.6508028, "lon": -0.1890253, "tags": {"amenity": "atm", "opening_hours": "24/7", "operator": "Fidelity Bank"}}, {"type": "node", "id": 5779017654, "lat": 5.6508039, "lon": -0.1889738, "tags": {"amenity": "atm", "opening_hours": "24/7", "operator": "Prudential Bank"}}, {"type": "node", "id": 5808035307, "lat": 5.646781, "lon": -0.1875734, "tags": {"amenity": "atm", "brand": "GCB Bank", "brand:wikidata": "Q1521346", "brand:wikipedia": "en:GCB Bank", "name": "GCB Bank", "operator": "GCB Bank", "operator:wikidata": "Q1521346", "operator:wikipedia": "en:GCB Bank"}}, {"type": "node", "id": 5808039515, "lat": 5.6468339, "lon": -0.1875034, "tags": {"amenity": "atm", "brand": "Zenith Bank", "brand:wikidata": "Q5978240", "brand:wikipedia": "en:Zenith Bank", "name": "Zenith Bank", "operator": "Zenith Bank", "operator:wikidata": "Q5978240", "operator:wikipedia": "en:Zenith Bank"}}, {"type": "node", "id": 5810720358, "lat": 5.6471783, "lon": -0.1875033, "tags": {"amenity": "atm", "brand": "Access Bank", "brand:wikidata": "Q4672418", "brand:wikipedia": "en:Access Bank plc", "name": "Access Bank", "operator": "Access Bank", "operator:wikidata": "Q4672418", "operator:wikipedia": "en:Access Bank plc"}}, {"type": "node", "id": 9659870417, "lat": 5.6565539, "lon": -0.1815048, "tags": {"amenity": "atm", "currency:GHS": "yes", "operator": "ECOBANK"}}, {"type": "node", "id": 11066096742, "lat": 5.6510275, "lon": -0.1875888, "tags": {"amenity": "atm", "brand": "GCB Bank", "brand:wikidata": "Q1521346", "check_date": "2023-07-25", "description": "An ATM Machine", "internet_access": "no", "name": "GCB Bank ATM", "operator": "GCB Bank", "operator:wikidata": "Q1521346"}}, {"type": "node", "id": 11380277242, "lat": 5.6508426, "lon": -0.1864967, "tags": {"addr:city": "Accra", "addr:country": "GH", "addr:region": "Greater Accra", "addr:street": "Dr. J.B. Danquah Avenue", "addr:suburb": "Legon", "alt_name": "Standard Chartered Legon ATM", "amenity": "atm", "brand": "Standard Chartered", "brand:wikidata": "Q548278", "brand:wikipedia": "en:Standard Chartered", "cash_in": "no", "contact:instagram": "stanchartgh", "contact:linkedin": "standardchartered", "contact:twitter": "StanChartGH", "description": "Near Kingdom Bookshop Legon Campus", "email": "feedback.ghana@sc.com", "facebook": "StandardCharteredGH", "name": "Standard Chartered ATM", "opening_hours": "24/7", "operator": "Standard Chartered Ghana", "operator:type": "public", "operator:wikidata": "Q7598195", "operator:wikipedia": "en:Standard Chartered Ghana", "phone": "+233 30 263 3428; +233 30 274 0100", "website": "https://www.sc.com/gh"}}, {"type": "node", "id": 11463547636, "lat": 5.6519751, "lon": -0.1797098, "tags": {"amenity": "atm"}}]}